[
  {
    "_id": { "$oid": "68296683fc13ae2b682852ea" },
    "name": "Browseblab",
    "categoryId": { "$oid": "68294ef1fc13ae7c5328515d" },
    "lat": 57.7498282,
    "lon": 12.9277839,
    "location": "7079 Carpenter Way"
  },
  {
    "_id": { "$oid": "68296683fc13ae2b682852eb" },
    "name": "Agimba",
    "categoryId": { "$oid": "68294ef1fc13ae7c5328515a" },
    "lat": 31.848499,
    "lon": 120.0265654,
    "location": "04 Pawling Circle"
  },
  {
    "_id": { "$oid": "68296683fc13ae2b682852ec" },
    "name": "Flipbug",
    "categoryId": { "$oid": "68294ef1fc13ae7c5328515a" },
    "lat": 53.746745,
    "lon": 62.0609273,
    "location": "42754 Kropf Circle"
  },
  {
    "_id": { "$oid": "68296683fc13ae2b682852ed" },
    "name": "Realblab",
    "categoryId": { "$oid": "68294ef1fc13ae7c5328515a" },
    "lat": 14.7596318,
    "lon": 121.0589081,
    "location": "92 Lerdahl Alley"
  },
  {
    "_id": { "$oid": "68296683fc13ae2b682852ee" },
    "name": "Fadeo",
    "categoryId": { "$oid": "68294ef1fc13ae7c5328515a" },
    "lat": -6.2035969,
    "lon": 106.8198946,
    "location": "9873 Mayer Junction"
  },
  {
    "_id": { "$oid": "68296683fc13ae2b682852ef" },
    "name": "Tambee",
    "categoryId": { "$oid": "68294ef2fc13ae7c53285161" },
    "lat": 48.507933,
    "lon": 32.262317,
    "location": "248 Eggendart Plaza"
  },
  {
    "_id": { "$oid": "68296683fc13ae2b682852f0" },
    "name": "Flipstorm",
    "categoryId": { "$oid": "68294ef1fc13ae7c5328515b" },
    "lat": 43.499458,
    "lon": 16.5426001,
    "location": "640 Green Ridge Avenue"
  },
  {
    "_id": { "$oid": "68296683fc13ae2b682852f1" },
    "name": "Rhyloo",
    "categoryId": { "$oid": "68294ef2fc13ae7c53285164" },
    "lat": 23.5958633,
    "lon": 120.2858846,
    "location": "812 Rusk Point"
  },
  {
    "_id": { "$oid": "68296683fc13ae2b682852f2" },
    "name": "Thoughtblab",
    "categoryId": { "$oid": "68294ef1fc13ae7c5328515b" },
    "lat": 38.0068597,
    "lon": -8.385532,
    "location": "9 Dryden Alley"
  },
  {
    "_id": { "$oid": "68296683fc13ae2b682852f3" },
    "name": "Muxo",
    "categoryId": { "$oid": "68294ef2fc13ae7c53285163" },
    "lat": 52.2876905,
    "lon": 45.3602833,
    "location": "20 Northland Pass"
  },
  {
    "_id": { "$oid": "68296683fc13ae2b682852f4" },
    "name": "Mybuzz",
    "categoryId": { "$oid": "68294ef1fc13ae7c5328515b" },
    "lat": 8.1087597,
    "lon": -11.8478324,
    "location": "0864 Fieldstone Place"
  },
  {
    "_id": { "$oid": "68296683fc13ae2b682852f5" },
    "name": "Rhycero",
    "categoryId": { "$oid": "68294ef2fc13ae7c5328515f" },
    "lat": 58.3767785,
    "lon": 11.6764538,
    "location": "2 Cascade Pass"
  },
  {
    "_id": { "$oid": "68296683fc13ae2b682852f6" },
    "name": "Dabjam",
    "categoryId": { "$oid": "68294ef2fc13ae7c53285163" },
    "lat": 42.0615398,
    "lon": 20.6511592,
    "location": "2 Canary Terrace"
  },
  {
    "_id": { "$oid": "68296683fc13ae2b682852f7" },
    "name": "Reallinks",
    "categoryId": { "$oid": "68294ef1fc13ae7c5328515d" },
    "lat": 45.6834469,
    "lon": -73.4248393,
    "location": "85509 Logan Parkway"
  },
  {
    "_id": { "$oid": "68296683fc13ae2b682852f8" },
    "name": "Zooxo",
    "categoryId": { "$oid": "68294ef2fc13ae7c53285161" },
    "lat": -10.4322235,
    "lon": -62.4792921,
    "location": "75816 Fulton Pass"
  },
  {
    "_id": { "$oid": "68296683fc13ae2b682852f9" },
    "name": "Skaboo",
    "categoryId": { "$oid": "68294ef1fc13ae7c5328515b" },
    "lat": 48.8132669,
    "lon": 2.4114143,
    "location": "382 Onsgard Terrace"
  },
  {
    "_id": { "$oid": "68296683fc13ae2b682852fa" },
    "name": "Shuffletag",
    "categoryId": { "$oid": "68294ef2fc13ae7c5328515f" },
    "lat": 59.927607,
    "lon": 32.296821,
    "location": "131 Ohio Circle"
  },
  {
    "_id": { "$oid": "68296683fc13ae2b682852fb" },
    "name": "Topiclounge",
    "categoryId": { "$oid": "68294ef1fc13ae7c5328515b" },
    "lat": 41.96571,
    "lon": 22.7708273,
    "location": "62 Harbort Plaza"
  },
  {
    "_id": { "$oid": "68296683fc13ae2b682852fc" },
    "name": "Trilia",
    "categoryId": { "$oid": "68294ef2fc13ae7c5328515f" },
    "lat": 51.84861,
    "lon": 41.46056,
    "location": "52 Waubesa Alley"
  },
  {
    "_id": { "$oid": "68296683fc13ae2b682852fd" },
    "name": "Fivespan",
    "categoryId": { "$oid": "68294ef2fc13ae7c53285163" },
    "lat": 42.52056,
    "lon": 130.39528,
    "location": "10599 Arrowood Pass"
  },
  {
    "_id": { "$oid": "68296683fc13ae2b682852fe" },
    "name": "LiveZ",
    "categoryId": { "$oid": "68294ef2fc13ae7c53285160" },
    "lat": 40.0912332,
    "lon": 44.4037713,
    "location": "73486 Toban Trail"
  },
  {
    "_id": { "$oid": "68296683fc13ae2b682852ff" },
    "name": "Skimia",
    "categoryId": { "$oid": "68294ef1fc13ae7c5328515a" },
    "lat": 42.3890735,
    "lon": 47.9897691,
    "location": "08 Bartillon Circle"
  },
  {
    "_id": { "$oid": "68296683fc13ae2b68285300" },
    "name": "BlogXS",
    "categoryId": { "$oid": "68294ef2fc13ae7c53285164" },
    "lat": 8.8702881,
    "lon": -79.810063,
    "location": "6 Lerdahl Hill"
  },
  {
    "_id": { "$oid": "68296683fc13ae2b68285301" },
    "name": "Buzzbean",
    "categoryId": { "$oid": "68294ef1fc13ae7c5328515a" },
    "lat": 13.4689232,
    "lon": 120.9800797,
    "location": "1 Center Alley"
  },
  {
    "_id": { "$oid": "68296683fc13ae2b68285302" },
    "name": "Tazz",
    "categoryId": { "$oid": "68294ef2fc13ae7c53285161" },
    "lat": 32.667571,
    "lon": 119.004816,
    "location": "73594 Novick Crossing"
  },
  {
    "_id": { "$oid": "68296683fc13ae2b68285303" },
    "name": "Centidel",
    "categoryId": { "$oid": "68294ef2fc13ae7c53285162" },
    "lat": -29.4484468,
    "lon": -66.8679635,
    "location": "5 Harper Hill"
  },
  {
    "_id": { "$oid": "68296683fc13ae2b68285304" },
    "name": "Gigashots",
    "categoryId": { "$oid": "68294ef2fc13ae7c5328515f" },
    "lat": 41.509666,
    "lon": -7.9858152,
    "location": "904 Marcy Hill"
  },
  {
    "_id": { "$oid": "68296683fc13ae2b68285305" },
    "name": "Gigabox",
    "categoryId": { "$oid": "68294ef2fc13ae7c53285164" },
    "lat": 46.18869,
    "lon": 90.80581,
    "location": "9938 Fremont Parkway"
  },
  {
    "_id": { "$oid": "68296683fc13ae2b68285306" },
    "name": "Yodel",
    "categoryId": { "$oid": "68294ef1fc13ae7c5328515e" },
    "lat": 32.23483,
    "lon": 119.797634,
    "location": "63264 Browning Center"
  },
  {
    "_id": { "$oid": "68296683fc13ae2b68285307" },
    "name": "Kanoodle",
    "categoryId": { "$oid": "68294ef1fc13ae7c5328515e" },
    "lat": 34.3227574,
    "lon": 134.1742831,
    "location": "99368 Ridge Oak Parkway"
  },
  {
    "_id": { "$oid": "68296683fc13ae2b68285308" },
    "name": "Avamm",
    "categoryId": { "$oid": "68294ef2fc13ae7c5328515f" },
    "lat": 2.266733,
    "lon": -75.803848,
    "location": "5 Mcguire Parkway"
  },
  {
    "_id": { "$oid": "68296683fc13ae2b68285309" },
    "name": "Jabberstorm",
    "categoryId": { "$oid": "68294ef1fc13ae7c5328515b" },
    "lat": 19.4511972,
    "lon": -99.2401069,
    "location": "495 Scoville Point"
  },
  {
    "_id": { "$oid": "68296683fc13ae2b6828530a" },
    "name": "Trilith",
    "categoryId": { "$oid": "68294ef1fc13ae7c5328515d" },
    "lat": -23.3505295,
    "lon": 47.5914122,
    "location": "5 Anhalt Way"
  },
  {
    "_id": { "$oid": "68296683fc13ae2b6828530b" },
    "name": "Eayo",
    "categoryId": { "$oid": "68294ef1fc13ae7c5328515b" },
    "lat": 11.7760619,
    "lon": 124.8803623,
    "location": "70463 Corry Trail"
  },
  {
    "_id": { "$oid": "68296683fc13ae2b6828530c" },
    "name": "Jayo",
    "categoryId": { "$oid": "68294ef2fc13ae7c53285160" },
    "lat": 6.3188032,
    "lon": 16.3758145,
    "location": "14 Division Court"
  },
  {
    "_id": { "$oid": "68296683fc13ae2b6828530d" },
    "name": "Jaxbean",
    "categoryId": { "$oid": "68294ef1fc13ae7c5328515a" },
    "lat": 5.067291,
    "lon": -74.595361,
    "location": "2955 Red Cloud Drive"
  },
  {
    "_id": { "$oid": "68296683fc13ae2b6828530e" },
    "name": "Dynava",
    "categoryId": { "$oid": "68294ef1fc13ae7c5328515a" },
    "lat": -6.9579774,
    "lon": -76.4172594,
    "location": "86238 Shopko Drive"
  },
  {
    "_id": { "$oid": "68296683fc13ae2b6828530f" },
    "name": "Browsecat",
    "categoryId": { "$oid": "68294ef2fc13ae7c53285160" },
    "lat": 25.852003,
    "lon": 98.8529872,
    "location": "52853 Fair Oaks Plaza"
  },
  {
    "_id": { "$oid": "68296683fc13ae2b68285310" },
    "name": "Divavu",
    "categoryId": { "$oid": "68294ef2fc13ae7c53285163" },
    "lat": 52.3863062,
    "lon": 9.7156831,
    "location": "41562 Morning Road"
  },
  {
    "_id": { "$oid": "68296683fc13ae2b68285311" },
    "name": "Youbridge",
    "categoryId": { "$oid": "68294ef1fc13ae7c5328515d" },
    "lat": 26.5836,
    "lon": 104.857063,
    "location": "52 Nobel Lane"
  },
  {
    "_id": { "$oid": "68296683fc13ae2b68285312" },
    "name": "Browsezoom",
    "categoryId": { "$oid": "68294ef1fc13ae7c5328515c" },
    "lat": 38.5527205,
    "lon": 69.0138738,
    "location": "49472 Kropf Alley"
  },
  {
    "_id": { "$oid": "68296683fc13ae2b68285313" },
    "name": "Jabbercube",
    "categoryId": { "$oid": "68294ef2fc13ae7c53285162" },
    "lat": 5.709563,
    "lon": -77.2666969,
    "location": "0 Vernon Park"
  },
  {
    "_id": { "$oid": "68296683fc13ae2b68285314" },
    "name": "Centimia",
    "categoryId": { "$oid": "68294ef1fc13ae7c5328515a" },
    "lat": 29.830962,
    "lon": 104.848829,
    "location": "2387 Oak Valley Street"
  },
  {
    "_id": { "$oid": "68296683fc13ae2b68285315" },
    "name": "Brightdog",
    "categoryId": { "$oid": "68294ef2fc13ae7c53285163" },
    "lat": 13.264915,
    "lon": 123.4256573,
    "location": "85394 Rutledge Trail"
  },
  {
    "_id": { "$oid": "68296683fc13ae2b68285316" },
    "name": "Zoomzone",
    "categoryId": { "$oid": "68294ef2fc13ae7c53285160" },
    "lat": 24.49705,
    "lon": 103.418167,
    "location": "24 Pierstorff Plaza"
  },
  {
    "_id": { "$oid": "68296683fc13ae2b68285317" },
    "name": "Gevee",
    "categoryId": { "$oid": "68294ef1fc13ae7c5328515b" },
    "lat": -24.6967014,
    "lon": 33.544808,
    "location": "73 Gale Way"
  },
  {
    "_id": { "$oid": "68296683fc13ae2b68285318" },
    "name": "Realpoint",
    "categoryId": { "$oid": "68294ef2fc13ae7c53285161" },
    "lat": -15.8272432,
    "lon": -50.265662,
    "location": "61708 Florence Park"
  },
  {
    "_id": { "$oid": "68296683fc13ae2b68285319" },
    "name": "Tavu",
    "categoryId": { "$oid": "68294ef2fc13ae7c53285162" },
    "lat": 30.71509,
    "lon": 31.56241,
    "location": "8 Johnson Avenue"
  },
  {
    "_id": { "$oid": "68296683fc13ae2b6828531a" },
    "name": "Photospace",
    "categoryId": { "$oid": "68294ef1fc13ae7c5328515d" },
    "lat": -6.4712737,
    "lon": 110.8171082,
    "location": "96622 Schmedeman Circle"
  },
  {
    "_id": { "$oid": "68296683fc13ae2b6828531b" },
    "name": "Topiczoom",
    "categoryId": { "$oid": "68294ef1fc13ae7c5328515b" },
    "lat": -12.0442537,
    "lon": -75.2535192,
    "location": "3017 Quincy Crossing"
  },
  {
    "_id": { "$oid": "68296683fc13ae2b6828531c" },
    "name": "Trunyx",
    "categoryId": { "$oid": "68294ef2fc13ae7c53285161" },
    "lat": 39.344338,
    "lon": 113.973592,
    "location": "4 Jay Parkway"
  },
  {
    "_id": { "$oid": "68296683fc13ae2b6828531d" },
    "name": "Roodel",
    "categoryId": { "$oid": "68294ef1fc13ae7c5328515c" },
    "lat": 52.3982331,
    "lon": 13.2448535,
    "location": "151 Eagan Alley"
  },
  {
    "_id": { "$oid": "68296683fc13ae2b6828531e" },
    "name": "Buzzbean",
    "categoryId": { "$oid": "68294ef1fc13ae7c5328515a" },
    "lat": -14.2576342,
    "lon": -69.1692951,
    "location": "2 Macpherson Point"
  },
  {
    "_id": { "$oid": "68296683fc13ae2b6828531f" },
    "name": "Katz",
    "categoryId": { "$oid": "68294ef1fc13ae7c5328515a" },
    "lat": 18.4562829,
    "lon": -77.3266991,
    "location": "68913 Anthes Plaza"
  },
  {
    "_id": { "$oid": "68296683fc13ae2b68285320" },
    "name": "Skaboo",
    "categoryId": { "$oid": "68294ef2fc13ae7c53285160" },
    "lat": 27.0874564,
    "lon": 114.9042208,
    "location": "41 Kings Circle"
  },
  {
    "_id": { "$oid": "68296683fc13ae2b68285321" },
    "name": "Shuffledrive",
    "categoryId": { "$oid": "68294ef1fc13ae7c5328515d" },
    "lat": 56.1865953,
    "lon": 42.1663109,
    "location": "26296 Esker Parkway"
  },
  {
    "_id": { "$oid": "68296683fc13ae2b68285322" },
    "name": "Viva",
    "categoryId": { "$oid": "68294ef2fc13ae7c53285164" },
    "lat": 54.20802,
    "lon": 50.4676343,
    "location": "631 Rieder Center"
  },
  {
    "_id": { "$oid": "68296683fc13ae2b68285323" },
    "name": "Skinte",
    "categoryId": { "$oid": "68294ef2fc13ae7c53285160" },
    "lat": 40.0341373,
    "lon": -8.41643,
    "location": "543 International Center"
  },
  {
    "_id": { "$oid": "68296683fc13ae2b68285324" },
    "name": "Gabvine",
    "categoryId": { "$oid": "68294ef2fc13ae7c53285164" },
    "lat": -7.8165708,
    "lon": -78.416925,
    "location": "3 Gerald Avenue"
  },
  {
    "_id": { "$oid": "68296683fc13ae2b68285325" },
    "name": "Izio",
    "categoryId": { "$oid": "68294ef2fc13ae7c53285162" },
    "lat": 25.606486,
    "lon": 100.267638,
    "location": "01684 Manitowish Place"
  },
  {
    "_id": { "$oid": "68296683fc13ae2b68285326" },
    "name": "Miboo",
    "categoryId": { "$oid": "68294ef1fc13ae7c5328515c" },
    "lat": -7.4686612,
    "lon": -37.2746574,
    "location": "844 Victoria Lane"
  },
  {
    "_id": { "$oid": "68296683fc13ae2b68285327" },
    "name": "Yamia",
    "categoryId": { "$oid": "68294ef2fc13ae7c53285160" },
    "lat": 55.847796,
    "lon": 37.5643911,
    "location": "40 Almo Crossing"
  },
  {
    "_id": { "$oid": "68296683fc13ae2b68285328" },
    "name": "Linktype",
    "categoryId": { "$oid": "68294ef2fc13ae7c53285161" },
    "lat": 50.483457,
    "lon": 3.003076,
    "location": "723 Acker Street"
  },
  {
    "_id": { "$oid": "68296683fc13ae2b68285329" },
    "name": "Babbleset",
    "categoryId": { "$oid": "68294ef1fc13ae7c5328515a" },
    "lat": 3.9990545,
    "lon": 96.9638624,
    "location": "9503 Shelley Alley"
  },
  {
    "_id": { "$oid": "68296683fc13ae2b6828532a" },
    "name": "Leexo",
    "categoryId": { "$oid": "68294ef2fc13ae7c5328515f" },
    "lat": 48.851792,
    "lon": 123.810261,
    "location": "7 Dayton Center"
  },
  {
    "_id": { "$oid": "68296683fc13ae2b6828532b" },
    "name": "Katz",
    "categoryId": { "$oid": "68294ef2fc13ae7c53285163" },
    "lat": 35.1654999,
    "lon": 45.9896078,
    "location": "144 Bellgrove Street"
  },
  {
    "_id": { "$oid": "68296683fc13ae2b6828532c" },
    "name": "Youbridge",
    "categoryId": { "$oid": "68294ef2fc13ae7c53285163" },
    "lat": 44.2484,
    "lon": 111.73948,
    "location": "48130 Nevada Street"
  },
  {
    "_id": { "$oid": "68296683fc13ae2b6828532d" },
    "name": "Leexo",
    "categoryId": { "$oid": "68294ef1fc13ae7c5328515d" },
    "lat": 36.995188,
    "lon": 110.613177,
    "location": "67 Sage Avenue"
  },
  {
    "_id": { "$oid": "68296683fc13ae2b6828532e" },
    "name": "Wikizz",
    "categoryId": { "$oid": "68294ef1fc13ae7c5328515d" },
    "lat": 32.7150419,
    "lon": -117.1724288,
    "location": "95 1st Crossing"
  },
  {
    "_id": { "$oid": "68296683fc13ae2b6828532f" },
    "name": "Mycat",
    "categoryId": { "$oid": "68294ef2fc13ae7c53285164" },
    "lat": 31.2303904,
    "lon": 121.4737021,
    "location": "1799 Dunning Trail"
  },
  {
    "_id": { "$oid": "68296683fc13ae2b68285330" },
    "name": "Tazz",
    "categoryId": { "$oid": "68294ef1fc13ae7c5328515b" },
    "lat": 2.5214059,
    "lon": 33.3486147,
    "location": "68 Anhalt Park"
  },
  {
    "_id": { "$oid": "68296683fc13ae2b68285331" },
    "name": "Digitube",
    "categoryId": { "$oid": "68294ef2fc13ae7c5328515f" },
    "lat": -8.2919428,
    "lon": 123.2254725,
    "location": "148 Warbler Way"
  },
  {
    "_id": { "$oid": "68296683fc13ae2b68285332" },
    "name": "Babbleset",
    "categoryId": { "$oid": "68294ef2fc13ae7c53285161" },
    "lat": 34.6682722,
    "lon": 36.2576611,
    "location": "863 Continental Road"
  },
  {
    "_id": { "$oid": "68296683fc13ae2b68285333" },
    "name": "Meetz",
    "categoryId": { "$oid": "68294ef2fc13ae7c53285161" },
    "lat": 29.222417,
    "lon": 89.982425,
    "location": "9 Sycamore Pass"
  },
  {
    "_id": { "$oid": "68296683fc13ae2b68285334" },
    "name": "Flashset",
    "categoryId": { "$oid": "68294ef2fc13ae7c5328515f" },
    "lat": 43.6036545,
    "lon": 1.3342086,
    "location": "17 Carioca Court"
  },
  {
    "_id": { "$oid": "68296683fc13ae2b68285335" },
    "name": "Trudeo",
    "categoryId": { "$oid": "68294ef2fc13ae7c53285162" },
    "lat": 54.4132559,
    "lon": 100.4819389,
    "location": "800 Orin Terrace"
  },
  {
    "_id": { "$oid": "68296683fc13ae2b68285336" },
    "name": "Omba",
    "categoryId": { "$oid": "68294ef1fc13ae7c5328515d" },
    "lat": 39.420994,
    "lon": 20.0143022,
    "location": "6 Prentice Crossing"
  },
  {
    "_id": { "$oid": "68296683fc13ae2b68285337" },
    "name": "Vipe",
    "categoryId": { "$oid": "68294ef2fc13ae7c53285164" },
    "lat": 0.4864487,
    "lon": 32.4764443,
    "location": "49255 Harper Parkway"
  },
  {
    "_id": { "$oid": "68296683fc13ae2b68285338" },
    "name": "Mydeo",
    "categoryId": { "$oid": "68294ef1fc13ae7c5328515e" },
    "lat": -22.8140057,
    "lon": -45.1904004,
    "location": "3411 Dayton Place"
  },
  {
    "_id": { "$oid": "68296683fc13ae2b68285339" },
    "name": "Thoughtblab",
    "categoryId": { "$oid": "68294ef1fc13ae7c5328515d" },
    "lat": 48.5129473,
    "lon": 2.6780176,
    "location": "3995 Esch Plaza"
  },
  {
    "_id": { "$oid": "68296683fc13ae2b6828533a" },
    "name": "Oyoloo",
    "categoryId": { "$oid": "68294ef2fc13ae7c5328515f" },
    "lat": -11.9019296,
    "lon": -76.6658165,
    "location": "3 Troy Way"
  },
  {
    "_id": { "$oid": "68296683fc13ae2b6828533b" },
    "name": "Oyonder",
    "categoryId": { "$oid": "68294ef2fc13ae7c5328515f" },
    "lat": 40.417902,
    "lon": 122.660538,
    "location": "60 Michigan Parkway"
  },
  {
    "_id": { "$oid": "68296683fc13ae2b6828533c" },
    "name": "Trudoo",
    "categoryId": { "$oid": "68294ef2fc13ae7c5328515f" },
    "lat": 5.478256,
    "lon": -75.1311874,
    "location": "8103 3rd Lane"
  },
  {
    "_id": { "$oid": "68296683fc13ae2b6828533d" },
    "name": "Mita",
    "categoryId": { "$oid": "68294ef2fc13ae7c53285163" },
    "lat": 14.913868,
    "lon": -87.26432,
    "location": "005 Alpine Road"
  },
  {
    "_id": { "$oid": "68296683fc13ae2b6828533e" },
    "name": "Fliptune",
    "categoryId": { "$oid": "68294ef2fc13ae7c53285161" },
    "lat": 27.508898,
    "lon": 119.582263,
    "location": "707 Rockefeller Junction"
  },
  {
    "_id": { "$oid": "68296683fc13ae2b6828533f" },
    "name": "Vitz",
    "categoryId": { "$oid": "68294ef1fc13ae7c5328515d" },
    "lat": 39.8647755,
    "lon": -8.9052753,
    "location": "86 Mesta Point"
  },
  {
    "_id": { "$oid": "68296683fc13ae2b68285340" },
    "name": "Miboo",
    "categoryId": { "$oid": "68294ef2fc13ae7c53285163" },
    "lat": 37.2425649,
    "lon": 111.8568586,
    "location": "64888 Straubel Crossing"
  },
  {
    "_id": { "$oid": "68296683fc13ae2b68285341" },
    "name": "Chatterbridge",
    "categoryId": { "$oid": "68294ef1fc13ae7c5328515a" },
    "lat": 10.2635715,
    "lon": 123.8394629,
    "location": "3 Coleman Lane"
  },
  {
    "_id": { "$oid": "68296683fc13ae2b68285342" },
    "name": "Ntags",
    "categoryId": { "$oid": "68294ef1fc13ae7c5328515b" },
    "lat": 55.9840531,
    "lon": 37.1619979,
    "location": "94 Blackbird Junction"
  },
  {
    "_id": { "$oid": "68296683fc13ae2b68285343" },
    "name": "Vidoo",
    "categoryId": { "$oid": "68294ef2fc13ae7c53285160" },
    "lat": 24.3482735,
    "lon": 116.6988851,
    "location": "081 Bunker Hill Lane"
  },
  {
    "_id": { "$oid": "68296683fc13ae2b68285344" },
    "name": "Feedbug",
    "categoryId": { "$oid": "68294ef2fc13ae7c53285162" },
    "lat": -6.8527,
    "lon": 115.2624,
    "location": "000 Columbus Center"
  },
  {
    "_id": { "$oid": "68296683fc13ae2b68285345" },
    "name": "Wordtune",
    "categoryId": { "$oid": "68294ef2fc13ae7c53285160" },
    "lat": 55.4563422,
    "lon": 40.6134152,
    "location": "3415 Reindahl Point"
  },
  {
    "_id": { "$oid": "68296683fc13ae2b68285346" },
    "name": "Livepath",
    "categoryId": { "$oid": "68294ef2fc13ae7c53285164" },
    "lat": -6.3874037,
    "lon": 106.8620891,
    "location": "7 Sachtjen Trail"
  },
  {
    "_id": { "$oid": "68296683fc13ae2b68285347" },
    "name": "Chatterbridge",
    "categoryId": { "$oid": "68294ef1fc13ae7c5328515b" },
    "lat": 15.3242773,
    "lon": -91.4839442,
    "location": "741 Lillian Road"
  },
  {
    "_id": { "$oid": "68296683fc13ae2b68285348" },
    "name": "Pixonyx",
    "categoryId": { "$oid": "68294ef2fc13ae7c53285164" },
    "lat": 48.8231572,
    "lon": 103.5218199,
    "location": "11 Fulton Road"
  },
  {
    "_id": { "$oid": "68296683fc13ae2b68285349" },
    "name": "Gabcube",
    "categoryId": { "$oid": "68294ef1fc13ae7c5328515a" },
    "lat": 34.606214,
    "lon": 115.852187,
    "location": "5 Londonderry Trail"
  },
  {
    "_id": { "$oid": "68296683fc13ae2b6828534a" },
    "name": "Browsetype",
    "categoryId": { "$oid": "68294ef2fc13ae7c53285164" },
    "lat": 57.708657,
    "lon": 12.0447568,
    "location": "45 Buell Junction"
  },
  {
    "_id": { "$oid": "68296683fc13ae2b6828534b" },
    "name": "Youopia",
    "categoryId": { "$oid": "68294ef1fc13ae7c5328515e" },
    "lat": 47.1426,
    "lon": 28.6295416,
    "location": "32 Declaration Crossing"
  },
  {
    "_id": { "$oid": "68296683fc13ae2b6828534c" },
    "name": "Gabtune",
    "categoryId": { "$oid": "68294ef2fc13ae7c53285160" },
    "lat": -7.2760371,
    "lon": 107.6925674,
    "location": "142 Petterle Pass"
  },
  {
    "_id": { "$oid": "68296683fc13ae2b6828534d" },
    "name": "Leenti",
    "categoryId": { "$oid": "68294ef1fc13ae7c5328515d" },
    "lat": 35.88518,
    "lon": 115.104389,
    "location": "311 Declaration Point"
  }
]
